[{"providerID": 0, "active": true, "name": "string", "qualification": "string", "speciality": "string", "phone": "string", "department": "string", "organization": "string", "location": "string", "address": "string"}, {"providerID": 1, "active": false, "name": "newName", "qualification": "string", "speciality": "string", "phone": "string", "department": "string", "organization": "string", "location": "string", "address": "string"}, {"providerID": 2, "active": true, "name": "string", "qualification": "string", "speciality": "string", "phone": "string", "department": "string", "organization": "string", "location": "string", "address": "string"}, {"providerID": 3, "active": true, "name": "string", "qualification": "string", "speciality": "string", "phone": "string", "department": "string", "organization": "string", "location": "string", "address": "string"}, {"providerID": 5, "active": true, "name": "string", "qualification": "string", "speciality": "string", "phone": "string", "department": "string", "organization": "string", "location": "string", "address": "string"}, {"providerID": 6, "active": true, "name": "string", "qualification": "string", "speciality": "string", "phone": "string", "department": "string", "organization": "string", "location": "string", "address": "string"}]